[
    {
        "id": 1292414361,
        "name": " 카페 드 파리",
        "cate": " 카페",
        "dong": " 명동",
        "lat": 37.562711,
        "lon": 126.983746,
        "score": 4.7,
        "review": 23,
        "contact": " 010-2216-0020",
        "address": " 서울 중구 명동4길 26 2층",
        "image_url": "https:\/\/img1.kakaocdn.net\/cthumb\/local\/R0x420\/?fname=http%3A%2F%2Ft1.daumcdn.net%2Fplace%2FEF9E18F8FFFA4CB2A79BACFF0E94285E"
    },
    {
        "id": 1798095400,
        "name": " 몰또이탈리안에소프레소바",
        "cate": " 카페",
        "dong": " 명동",
        "lat": 37.564577,
        "lon": 126.986213,
        "score": 3.4,
        "review": 144,
        "contact": " 02-778-7779",
        "address": " 서울 중구 명동길 73 3층",
        "image_url": "https:\/\/img1.kakaocdn.net\/cthumb\/local\/R0x420\/?fname=http%3A%2F%2Ft1.kakaocdn.net%2Ffiy_reboot%2Fplace%2F377F1DB0D8654B3A92404606766530AE"
    },
    {
        "id": 26934440,
        "name": " 르빵명동성당점",
        "cate": " 카페",
        "dong": " 명동",
        "lat": 37.56324,
        "lon": 126.987005,
        "score": 3.6,
        "review": 84,
        "contact": " 02-3789-7545",
        "address": " 서울 중구 명동길 74 B103호",
        "image_url": "https:\/\/img1.kakaocdn.net\/cthumb\/local\/R0x420\/?fname=http%3A%2F%2Ft1.daumcdn.net%2Fplace%2F180B8D786395466E917E84CCF1162DB2"
    },
    {
        "id": 1911581917,
        "name": " 가배도명동",
        "cate": " 카페",
        "dong": " 명동",
        "lat": 37.560576,
        "lon": 126.985138,
        "score": 4.2,
        "review": 333,
        "contact": " 0507-1304-4542",
        "address": " 서울 중구 퇴계로18길 10 1층",
        "image_url": "https:\/\/img1.kakaocdn.net\/cthumb\/local\/R0x420\/?fname=http%3A%2F%2Ft1.daumcdn.net%2Flocal%2FkakaomapPhoto%2Freview%2F6505fdf4b696aec089cc5c1d580cd3137acebf88%3Foriginal"
    },
    {
        "id": 474005666,
        "name": " 스타벅스레스케이프호텔R점",
        "cate": " 카페",
        "dong": " 명동",
        "lat": 37.560091,
        "lon": 126.979491,
        "score": 4.3,
        "review": 221,
        "contact": " 1522-3232",
        "address": " 서울 중구 퇴게로 67 7층",
        "image_url": "https:\/\/img1.kakaocdn.net\/cthumb\/local\/R0x420\/?fname=http%3A%2F%2Ft1.kakaocdn.net%2Ffiy_reboot%2Fplace%2F882962E97DF84135B42BFA01A369E553"
    },
    {
        "id": 1440347564,
        "name": " 커피한약방",
        "cate": " 카페",
        "dong": " 명동",
        "lat": 37.566757,
        "lon": 126.988612,
        "score": 3.8,
        "review": 592,
        "contact": " 070-4148-4242",
        "address": " 서울 중구 삼일대로12길 16-6 1층",
        "image_url": "https:\/\/img1.kakaocdn.net\/cthumb\/local\/R0x420\/?fname=http%3A%2F%2Ft1.daumcdn.net%2Fplace%2F2850329721C0415B8F08010707125C41"
    },
    {
        "id": 908123477,
        "name": " 샬레 드 서울",
        "cate": " 카페",
        "dong": " 명동",
        "lat": 37.558906,
        "lon": 126.987199,
        "score": 5.0,
        "review": 2,
        "contact": " 0507-1349-3149",
        "address": " 서울 중구 소파로 129",
        "image_url": "https:\/\/img1.kakaocdn.net\/cthumb\/local\/R0x420\/?fname=http%3A%2F%2Ft1.daumcdn.net%2Fplace%2F8AEF1A7F97BD4ADFBD1534A4AEC265A0"
    },
    {
        "id": 715789708,
        "name": " 버드더카페",
        "cate": " 카페",
        "dong": " 명동",
        "lat": 37.559257,
        "lon": 126.984675,
        "score": 3.9,
        "review": 44,
        "contact": " 02-777-0083",
        "address": " 서울 중구 퇴계로18길 46",
        "image_url": "https:\/\/img1.kakaocdn.net\/cthumb\/local\/R0x420\/?fname=http%3A%2F%2Ft1.daumcdn.net%2Flocalfiy%2F58DD42FF590146DAA10C1B7BA93D32B8"
    },
    {
        "id": 8123091,
        "name": " 포엠",
        "cate": " 카페",
        "dong": " 명동",
        "lat": 37.563228,
        "lon": 126.983721,
        "score": 4.6,
        "review": 220,
        "contact": " 02-776-5003",
        "address": " 서울 중구 명동4길 13 2층",
        "image_url": "https:\/\/img1.kakaocdn.net\/cthumb\/local\/R0x420\/?fname=http%3A%2F%2Ft1.kakaocdn.net%2Fmystore%2FBD828919D082428982D2970B23784B07"
    },
    {
        "id": 8888717,
        "name": " 도향촌",
        "cate": " 카페",
        "dong": " 명동",
        "lat": 37.562246,
        "lon": 126.982343,
        "score": 4.3,
        "review": 36,
        "contact": " 02-776-5671",
        "address": " 서울 중구 남대문로 52-13",
        "image_url": "https:\/\/img1.kakaocdn.net\/cthumb\/local\/R0x420\/?fname=http%3A%2F%2Ft1.daumcdn.net%2Flocal%2FkakaomapPhoto%2Freview%2F525716ebad53183d8e58ae95bc84cdada61c2277ae090dd3bda64fad5e513d3e"
    },
    {
        "id": 448756749,
        "name": " 리사르커피 명동점",
        "cate": " 카페",
        "dong": " 명동",
        "lat": 37.561843,
        "lon": 126.988244,
        "score": 4.2,
        "review": 153,
        "contact": " 0507-1307-0961",
        "address": " 서울 중구 명동8가길 58 1층",
        "image_url": "https:\/\/img1.kakaocdn.net\/cthumb\/local\/R0x420\/?fname=http%3A%2F%2Ft1.daumcdn.net%2Fplace%2F9A6A86BB9EFB44AEA91B35D7EE4A6EA3"
    },
    {
        "id": 26609754,
        "name": " 에쎄레젤라또",
        "cate": " 카페",
        "dong": " 명동",
        "lat": 37.563457,
        "lon": 126.986843,
        "score": 4.0,
        "review": 37,
        "contact": " 0507-1353-5860",
        "address": " 서울 중구 명동길 74 명동성당 B104호",
        "image_url": "https:\/\/img1.kakaocdn.net\/cthumb\/local\/R0x420\/?fname=http%3A%2F%2Ft1.daumcdn.net%2Fplace%2F6D71A38E72D944EC8A0C4B0F53FE00E7"
    },
    {
        "id": 77566759,
        "name": " 크림시크",
        "cate": " 카페",
        "dong": " 명동",
        "lat": 37.564575,
        "lon": 126.984028,
        "score": 4.7,
        "review": 478,
        "contact": " 02-779-9271",
        "address": " 서울 중구 명동7길 13 1층",
        "image_url": "https:\/\/img1.kakaocdn.net\/cthumb\/local\/R0x420\/?fname=http%3A%2F%2Ft1.daumcdn.net%2Fplace%2FEF9CA5B3ADF748D895504633318A6FA8"
    },
    {
        "id": 2005375589,
        "name": " 썸띵어바웃커피",
        "cate": " 카페",
        "dong": " 강남",
        "lat": 37.502802,
        "lon": 127.027808,
        "score": 3.6,
        "review": 909,
        "contact": " -",
        "address": " 서울 강남구 강남대로102길 30 1~3층",
        "image_url": " https:\/\/img1.kakaocdn.net\/cthumb\/local\/R0x420\/?fname=http%3A%2F%2Ft1.kakaocdn.net%2Ffiy_reboot%2Fplace%2F9521163CEF8349FC97A36C3242E1EEB9"
    },
    {
        "id": 35026031,
        "name": " 스타벅스 강남R점",
        "cate": " 카페",
        "dong": " 강남",
        "lat": 37.497866,
        "lon": 127.028585,
        "score": 4.1,
        "review": 119,
        "contact": " 1522-3232",
        "address": " 서울 강남구 강남대로 390 미진프리자 1층 101호",
        "image_url": "https:\/\/img1.kakaocdn.net\/cthumb\/local\/R0x420\/?fname=http%3A%2F%2Ft1.daumcdn.net%2Fplace%2F469AED68708949D7AC7F30BA780C4A41"
    },
    {
        "id": 764363993,
        "name": " 인포메이션 카페",
        "cate": " 카페",
        "dong": " 강남",
        "lat": 37.494025,
        "lon": 127.032639,
        "score": 4.5,
        "review": 215,
        "contact": " 02-2189-2046",
        "address": " 서울 강남구 역삼로 121 유성빌딩 1층 지하1층",
        "image_url": "https:\/\/img1.kakaocdn.net\/cthumb\/local\/R0x420\/?fname=http%3A%2F%2Ft1.daumcdn.net%2Fplace%2F2C291170E07846659EA65EC4EC828350"
    },
    {
        "id": 23254386,
        "name": " 더 달달",
        "cate": " 카페",
        "dong": " 강남",
        "lat": 37.503161,
        "lon": 127.028423,
        "score": 4.1,
        "review": 432,
        "contact": " 02-562-3737",
        "address": " 서울 강남구 강남대로102길 38-6 1층 2층",
        "image_url": "https:\/\/img1.kakaocdn.net\/cthumb\/local\/R0x420\/?fname=http%3A%2F%2Ft1.daumcdn.net%2Fcfile%2F216D313652F458512E"
    },
    {
        "id": 1052653971,
        "name": " 셀렉티드마롱",
        "cate": " 카페",
        "dong": " 강남",
        "lat": 37.496527,
        "lon": 127.03026,
        "score": 4.5,
        "review": 121,
        "contact": " 070-4284-5104",
        "address": " 서울 강남구 테헨란로4길 37 1층",
        "image_url": "https:\/\/img1.kakaocdn.net\/cthumb\/local\/R0x420\/?fname=http%3A%2F%2Ft1.kakaocdn.net%2Fmystore%2F59ED095A27FD48A4817298630A8506C9"
    },
    {
        "id": 640630615,
        "name": " 앙트레블",
        "cate": " 카페",
        "dong": " 강남",
        "lat": 37.503833,
        "lon": 127.02824,
        "score": 4.8,
        "review": 61,
        "contact": " 02-571-1076",
        "address": " 서울 강남구 강남대로102길 45 지하1층",
        "image_url": "https:\/\/img1.kakaocdn.net\/cthumb\/local\/R0x420\/?fname=http%3A%2F%2Ft1.kakaocdn.net%2Ffiy_reboot%2Fplace%2FD149928123AB405B8F7013B68B44F4DE"
    },
    {
        "id": 126578831,
        "name": " 아티제 역삼역점",
        "cate": " 카페",
        "dong": " 강남",
        "lat": 37.501601,
        "lon": 127.037981,
        "score": 3.6,
        "review": 10,
        "contact": " 02-557-2155",
        "address": " 서울 강남구 테헤란로 203 SI타워빌딩 2층",
        "image_url": "https:\/\/img1.kakaocdn.net\/cthumb\/local\/R0x420\/?fname=http%3A%2F%2Ft1.daumcdn.net%2Fplace%2FA40C3C70FC364BC090619B1CC9CEF887"
    },
    {
        "id": 1349460427,
        "name": " 파라노이드 강남뱅뱅 카페",
        "cate": " 카페",
        "dong": " 강남",
        "lat": 37.490371,
        "lon": 127.031851,
        "score": 4.1,
        "review": 55,
        "contact": " 02-6953-7228",
        "address": " 서울 강남구 강남대로62길 3 한진빌딩 1층",
        "image_url": "https:\/\/img1.kakaocdn.net\/cthumb\/local\/R0x420\/?fname=http%3A%2F%2Ft1.kakaocdn.net%2Fmystore%2F192ECAD9AFD3462FBD3D639DC7BC2EEA"
    },
    {
        "id": 1692043917,
        "name": " 구테로이테",
        "cate": " 카페",
        "dong": " 강남",
        "lat": 37.517609,
        "lon": 127.039663,
        "score": 4.2,
        "review": 643,
        "contact": " 02-528-1117",
        "address": " 서울 강남구 선릉로131길 16 1층",
        "image_url": "https:\/\/img1.kakaocdn.net\/cthumb\/local\/R0x420\/?fname=http%3A%2F%2Ft1.kakaocdn.net%2Fmystore%2F67185A04C5D44035AD149EFC310FE189"
    },
    {
        "id": 853588987,
        "name": " 마키아티 강남점",
        "cate": " 카페",
        "dong": " 강남",
        "lat": 37.496836,
        "lon": 127.029827,
        "score": 4.3,
        "review": 11,
        "contact": " 02-561-8511",
        "address": " 서울 강남구 강남대로84길 15 효성해링턴타워 1층 103호",
        "image_url": "https:\/\/img1.kakaocdn.net\/cthumb\/local\/R0x420\/?fname=http%3A%2F%2Ft1.daumcdn.net%2Fplace%2F65BA70C8A5D547109CEA6971A4AF0580"
    },
    {
        "id": 1372734736,
        "name": " 카페 그랑주",
        "cate": " 카페",
        "dong": " 홍대",
        "lat": 37.554165,
        "lon": 126.921434,
        "score": 2.9,
        "review": 205,
        "contact": " 02-325-3131",
        "address": " 서울 마포구 홍익로5길 13 동신빌딩 지하1층",
        "image_url": "https:\/\/img1.kakaocdn.net\/cthumb\/local\/R0x420\/?fname=http%3A%2F%2Ft1.daumcdn.net%2Flocalfiy%2Fsearchregister_789319524"
    },
    {
        "id": 9362425,
        "name": " 위드커피",
        "cate": " 카페",
        "dong": " 홍대",
        "lat": 37.556683,
        "lon": 126.925334,
        "score": 4.1,
        "review": 41,
        "contact": " 02-322-7557",
        "address": " 서울 마포구 양화로18안길 12 1 2층",
        "image_url": "https:\/\/img1.kakaocdn.net\/cthumb\/local\/R0x420\/?fname=http%3A%2F%2Ft1.daumcdn.net%2Fcfile%2F1560834A500DFF610F"
    },
    {
        "id": 12108448,
        "name": " 스타벅스 사당역점",
        "cate": " 카페",
        "dong": " 사당",
        "lat": 37.4786,
        "lon": 126.9814,
        "score": 4.4,
        "review": 65,
        "contact": " 1522-3232",
        "address": " 서울 동작구 동작대로 21 양지빌딩 1~3층",
        "image_url": "https:\/\/img1.kakaocdn.net\/cthumb\/local\/R0x420\/?fname=http%3A%2F%2Ft1.daumcdn.net%2Fcfile%2F2442874B55E006C632"
    },
    {
        "id": 8117522,
        "name": " 파리바게뜨 사당역점",
        "cate": " 카페",
        "dong": " 사당",
        "lat": 37.478766,
        "lon": 126.981329,
        "score": 3.8,
        "review": 5,
        "contact": " 02-582-0280",
        "address": " 서울 동작구 동작대로 25 사임당화정품빌딩 1층",
        "image_url": "https:\/\/img1.kakaocdn.net\/cthumb\/local\/R0x420\/?fname=http%3A%2F%2Fcfile175.uf.daum.net%2Fimage%2F9938EC465AD577E91E0957"
    },
    {
        "id": 1531032887,
        "name": " 명동아지트",
        "cate": " 카페",
        "dong": " 명동",
        "lat": 37.561961,
        "lon": 126.985403,
        "score": 5.0,
        "review": 69,
        "contact": " 02-778-6081",
        "address": " 서울 중구 명동8가길 7",
        "image_url": "https:\/\/img1.kakaocdn.net\/cthumb\/local\/R0x420\/?fname=http%3A%2F%2Ft1.daumcdn.net%2Flocal%2FkakaomapPhoto%2Freview%2F1cf85f92c6a2436970f7b6cab474ce79b2729e80%3Foriginal"
    },
    {
        "id": 448756749,
        "name": " 리사르커피명동점",
        "cate": " 카페",
        "dong": " 명동",
        "lat": 37.561959,
        "lon": 126.988225,
        "score": 5.0,
        "review": 69,
        "contact": " 02-778-6081",
        "address": " 서울 중구 명동8가길 7",
        "image_url": "https:\/\/img1.kakaocdn.net\/cthumb\/local\/R0x420\/?fname=http%3A%2F%2Ft1.daumcdn.net%2Flocal%2FkakaomapPhoto%2Freview%2F4fb5cc37173bc2cceb5f02925e6f015067ac5a3a%3Foriginal"
    },
    {
        "id": 1264389667,
        "name": " AboutBagel",
        "cate": " 카페",
        "dong": " 명동",
        "lat": 37.564774,
        "lon": 126.983145,
        "score": 3.7,
        "review": 1,
        "contact": " -",
        "address": " 서울 중구 명동7가길 22 1~4층",
        "image_url": "https:\/\/img1.kakaocdn.net\/cthumb\/local\/R0x420\/?fname=http%3A%2F%2Ft1.daumcdn.net%2Flocal%2FkakaomapPhoto%2Freview%2Fafa22225dc8947d8a23afac9cb44a32ff580827a%3Foriginal"
    },
    {
        "id": 802029125,
        "name": " 카페구할구",
        "cate": " 카페",
        "dong": " 명동",
        "lat": 37.558633,
        "lon": 126.98703,
        "score": 4.3,
        "review": 49,
        "contact": " 02-3789-5953",
        "address": " 서울 중구 퇴계로20길 73",
        "image_url": "https:\/\/img1.kakaocdn.net\/cthumb\/local\/R0x420\/?fname=http%3A%2F%2Ft1.kakaocdn.net%2Ffiy_reboot%2Fplace%2FD969BE32CDEE4CFA8D6F3F4273C56278"
    },
    {
        "id": 22105109,
        "name": " 스타벅스 홍대역점",
        "cate": " 카페",
        "dong": " 홍대",
        "lat": 37.557156,
        "lon": 126.923582,
        "score": 3.8,
        "review": 497,
        "contact": " 1522-3232",
        "address": " 서울 마포구 양화로 165 상진빌딩 1층",
        "image_url": "https:\/\/img1.kakaocdn.net\/cthumb\/local\/R0x420\/?fname=http%3A%2F%2Ft1.daumcdn.net%2Fcfile%2F2302F05055E006D71F"
    }
]