[
    {
        "id":12793877,
        "name":" 란주라미엔",
        "cate":" 중식",
        "dong":" 명동",
        "lat":37.561432,
        "lon":126.982246,
        "score":4.44,
        "review":485
    },
    {
        "id":22906526,
        "name":" 딘타이펑 명동점",
        "cate":" 중식",
        "dong":" 명동",
        "lat":37.564775,
        "lon":126.984219,
        "score":4.43,
        "review":485
    },
    {
        "id":26646897,
        "name":" 꽁시면관 본점",
        "cate":" 중식",
        "dong":" 명동",
        "lat":37.562177,
        "lon":126.983413,
        "score":4.35,
        "review":110
    },
    {
        "id":1914725849,
        "name":" 매화양꼬치 명동점",
        "cate":" 중식",
        "dong":" 명동",
        "lat":37.559559,
        "lon":126.985999,
        "score":4.55,
        "review":333
    },
    {
        "id":8577709,
        "name":" 초류향",
        "cate":" 중식",
        "dong":" 명동",
        "lat":37.567567,
        "lon":126.980417,
        "score":4.21,
        "review":144
    },
    {
        "id":19736781,
        "name":" 유가",
        "cate":" 중식",
        "dong":" 명동",
        "lat":37.556681,
        "lon":126.981467,
        "score":4.45,
        "review":421
    },
    {
        "id":10130879,
        "name":" 개화 명동점",
        "cate":" 중식",
        "dong":" 명동",
        "lat":37.562351,
        "lon":126.981627,
        "score":4.13,
        "review":278
    },
    {
        "id":1981529534,
        "name":" 팀호완 명동점",
        "cate":" 중식",
        "dong":" 명동",
        "lat":37.562072,
        "lon":126.98646,
        "score":4.21,
        "review":491
    },
    {
        "id":7912905,
        "name":" 산동교자",
        "cate":" 중식",
        "dong":" 명동",
        "lat":37.562255,
        "lon":126.982306,
        "score":4.08,
        "review":382
    },
    {
        "id":1820258951,
        "name":" 하이디라오 명동점",
        "cate":" 중식",
        "dong":" 명동",
        "lat":37.565565,
        "lon":126.98376,
        "score":4.59,
        "review":316
    },
    {
        "id":1201719127,
        "name":" 라공방 강남역점",
        "cate":" 중식",
        "dong":" 강남",
        "lat":37.499942,
        "lon":127.027382,
        "score":4.22,
        "review":456
    },
    {
        "id":20699830,
        "name":" 초마",
        "cate":" 중식",
        "dong":" 홍대",
        "lat":37.550888,
        "lon":126.923368,
        "score":4.35,
        "review":124
    },
    {
        "id":918748247,
        "name":" 하선생",
        "cate":" 중식",
        "dong":" 사당",
        "lat":37.4785,
        "lon":126.981,
        "score":1.52,
        "review":153
    },
    {
        "id":8609409,
        "name":" 향미 명동점",
        "cate":" 중식",
        "dong":" 명동",
        "lat":37.562218,
        "lon":126.981725,
        "score":3.95,
        "review":405
    },
    {
        "id":647860343,
        "name":" 중심 명동",
        "cate":" 중식",
        "dong":" 명동",
        "lat":37.56178,
        "lon":126.982547,
        "score":3.67,
        "review":414
    }
]