[
    {
        "id":12793877,
        "name":" 란주라미엔",
        "cate":" 중식",
        "dong":" 명동",
        "lat":37.561432,
        "lon":126.982246,
        "score":3.7,
        "review":713,
        "contact":" -",
        "address":" 서울 중구 소공로 64 "
    },
    {
        "id":22906526,
        "name":" 딘타이펑 명동점",
        "cate":" 중식",
        "dong":" 명동",
        "lat":37.564775,
        "lon":126.984219,
        "score":4.43,
        "review":316,
        "contact":" 02-3789-2778",
        "address":" 서울 중구 명동7길 13 호텔28 2층"
    },
    {
        "id":26646897,
        "name":" 꽁시면관 본점",
        "cate":" 중식",
        "dong":" 명동",
        "lat":37.562177,
        "lon":126.983413,
        "score":3.2,
        "review":270,
        "contact":" 0507-1370-8863",
        "address":" 서울 중구 명동2길 45 꽁시면관"
    },
    {
        "id":1914725849,
        "name":" 매화양꼬치 명동점",
        "cate":" 중식",
        "dong":" 명동",
        "lat":37.559559,
        "lon":126.985999,
        "score":4.2,
        "review":43,
        "contact":" 02-772-9289",
        "address":" 서울 중구 퇴계로20길 19"
    },
    {
        "id":8577709,
        "name":" 초류향",
        "cate":" 중식",
        "dong":" 명동",
        "lat":37.567567,
        "lon":126.980417,
        "score":3.1,
        "review":212,
        "contact":" 02-775-2668",
        "address":" 서울 중구 다동길 24-10"
    },
    {
        "id":19736781,
        "name":" 유가",
        "cate":" 중식",
        "dong":" 명동",
        "lat":37.556681,
        "lon":126.981467,
        "score":4.3,
        "review":148,
        "contact":" 02-3789-9688",
        "address":" 서울 중구 퇴계로12길 68"
    },
    {
        "id":10130879,
        "name":" 개화 명동점",
        "cate":" 중식",
        "dong":" 명동",
        "lat":37.562351,
        "lon":126.981627,
        "score":3.0,
        "review":37,
        "contact":" 02-776-0508",
        "address":" 서울 중구 남대문로 52-5"
    },
    {
        "id":1981529534,
        "name":" 팀호완 명동점",
        "cate":" 중식",
        "dong":" 명동",
        "lat":37.562072,
        "lon":126.98646,
        "score":4.2,
        "review":222,
        "contact":" 02-6272-3081",
        "address":" 서울 중구 명동8가길 27 2층"
    },
    {
        "id":7912905,
        "name":" 산동교자",
        "cate":" 중식",
        "dong":" 명동",
        "lat":37.562255,
        "lon":126.982306,
        "score":2.7,
        "review":175,
        "contact":" 02-778-4150",
        "address":" 서울 중구 남대문로 52-13"
    },
    {
        "id":1820258951,
        "name":" 하이디라오 명동점",
        "cate":" 중식",
        "dong":" 명동",
        "lat":37.565565,
        "lon":126.98376,
        "score":4.1,
        "review":407,
        "contact":" 02-3789-3888",
        "address":" 서울 중구 명동3길 36 마이티빌딩 1층"
    },
    {
        "id":1811506643,
        "name":" 분짜라붐 역삼점",
        "cate":" 중식",
        "dong":" 강남",
        "lat":37.501521,
        "lon":127.035024,
        "score":3.6,
        "review":59,
        "contact":" 02-567-5379",
        "address":" 서울 강남구 테헤란로25길 13 1 2층"
    },
    {
        "id":1201719127,
        "name":" 라공방 강남역점",
        "cate":" 중식",
        "dong":" 강남",
        "lat":37.499942,
        "lon":127.027382,
        "score":2.3,
        "review":28,
        "contact":" 02-566-5002",
        "address":" 서울 강남구 테헤란로1길 25 1층"
    },
    {
        "id":20699830,
        "name":" 초마",
        "cate":" 중식",
        "dong":" 홍대",
        "lat":37.550888,
        "lon":126.923368,
        "score":3.9,
        "review":21,
        "contact":" 070-7661-8963",
        "address":" 서울 마포구 와우산로 72 2층"
    },
    {
        "id":918748247,
        "name":" 하선생",
        "cate":" 중식",
        "dong":" 사당",
        "lat":37.4785,
        "lon":126.981,
        "score":4.3,
        "review":22,
        "contact":" 02-521-5512",
        "address":" 서울 동작구 동작대로3길 8"
    },
    {
        "id":8609409,
        "name":" 향미 명동점",
        "cate":" 중식",
        "dong":" 명동",
        "lat":37.562218,
        "lon":126.981725,
        "score":3.95,
        "review":405,
        "contact":" 02-773-8835",
        "address":" 서울 중구 남대문로 52-5 1층"
    },
    {
        "id":647860343,
        "name":" 중심 명동",
        "cate":" 중식",
        "dong":" 명동",
        "lat":37.56178,
        "lon":126.982547,
        "score":3.5,
        "review":17,
        "contact":" 02-777-8996",
        "address":" 서울 중구 명동8나길 38 3층"
    }
]