[
    {
        "id":1292414361,
        "name":" 카페 드 파리",
        "cate":" 카페",
        "dong":" 명동",
        "lat":37.562711,
        "lon":126.983746,
        "score":4.26,
        "review":345
    },
    {
        "id":1798095400,
        "name":" 몰또이탈리안에소프레소바",
        "cate":" 카페",
        "dong":" 명동",
        "lat":37.564577,
        "lon":126.986213,
        "score":4.41,
        "review":442
    },
    {
        "id":26934440,
        "name":" 르빵명동성당점",
        "cate":" 카페",
        "dong":" 명동",
        "lat":37.56324,
        "lon":126.987005,
        "score":4.47,
        "review":494
    },
    {
        "id":1911581917,
        "name":" 가배도명동",
        "cate":" 카페",
        "dong":" 명동",
        "lat":37.560576,
        "lon":126.985138,
        "score":4.44,
        "review":316
    },
    {
        "id":474005666,
        "name":" 스타벅스레스케이프호텔R점",
        "cate":" 카페",
        "dong":" 명동",
        "lat":37.560091,
        "lon":126.979491,
        "score":4.55,
        "review":472
    },
    {
        "id":1440347564,
        "name":" 커피한약방",
        "cate":" 카페",
        "dong":" 명동",
        "lat":37.566757,
        "lon":126.988612,
        "score":4.42,
        "review":383
    },
    {
        "id":908123477,
        "name":" 샬레 드 서울",
        "cate":" 카페",
        "dong":" 명동",
        "lat":37.558906,
        "lon":126.987199,
        "score":4.68,
        "review":371
    },
    {
        "id":715789708,
        "name":" 버드더카페",
        "cate":" 카페",
        "dong":" 명동",
        "lat":37.559257,
        "lon":126.984675,
        "score":4.32,
        "review":193
    },
    {
        "id":8123091,
        "name":" 포엠",
        "cate":" 카페",
        "dong":" 명동",
        "lat":37.563228,
        "lon":126.983721,
        "score":4.47,
        "review":103
    },
    {
        "id":8888717,
        "name":" 도향촌",
        "cate":" 카페",
        "dong":" 명동",
        "lat":37.562246,
        "lon":126.982343,
        "score":4.42,
        "review":76
    },
    {
        "id":448756749,
        "name":" 리사르커피 명동점",
        "cate":" 카페",
        "dong":" 명동",
        "lat":37.561843,
        "lon":126.988244,
        "score":4.52,
        "review":108
    },
    {
        "id":26609754,
        "name":" 에쎄레젤라또",
        "cate":" 카페",
        "dong":" 명동",
        "lat":37.563457,
        "lon":126.986843,
        "score":4.45,
        "review":392
    },
    {
        "id":77566759,
        "name":" 크림시크",
        "cate":" 카페",
        "dong":" 명동",
        "lat":37.564575,
        "lon":126.984028,
        "score":4.72,
        "review":132
    },
    {
        "id":2005375589,
        "name":" 썸띵어바웃커피",
        "cate":" 카페",
        "dong":" 강남",
        "lat":37.502802,
        "lon":127.027808,
        "score":4.42,
        "review":214
    },
    {
        "id":35026031,
        "name":" 스타벅스 강남R점",
        "cate":" 카페",
        "dong":" 강남",
        "lat":37.497866,
        "lon":127.028585,
        "score":4.51,
        "review":487
    },
    {
        "id":764363993,
        "name":" 인포메이션 카페",
        "cate":" 카페",
        "dong":" 강남",
        "lat":37.494025,
        "lon":127.032639,
        "score":4.46,
        "review":384
    },
    {
        "id":23254386,
        "name":" 더 달달",
        "cate":" 카페",
        "dong":" 강남",
        "lat":37.503161,
        "lon":127.028423,
        "score":4.5,
        "review":155
    },
    {
        "id":1052653971,
        "name":" 셀렉티드마롱",
        "cate":" 카페",
        "dong":" 강남",
        "lat":37.496527,
        "lon":127.03026,
        "score":4.94,
        "review":61
    },
    {
        "id":640630615,
        "name":" 앙트레블",
        "cate":" 카페",
        "dong":" 강남",
        "lat":37.503833,
        "lon":127.02824,
        "score":4.8,
        "review":220
    },
    {
        "id":126578831,
        "name":" 아티제 역삼역점",
        "cate":" 카페",
        "dong":" 강남",
        "lat":37.501601,
        "lon":127.037981,
        "score":4.48,
        "review":288
    },
    {
        "id":1349460427,
        "name":" 파라노이드 강남뱅뱅 카페",
        "cate":" 카페",
        "dong":" 강남",
        "lat":37.490371,
        "lon":127.031851,
        "score":4.61,
        "review":155
    },
    {
        "id":1692043917,
        "name":" 구테로이테",
        "cate":" 카페",
        "dong":" 강남",
        "lat":37.517609,
        "lon":127.039663,
        "score":4.73,
        "review":314
    },
    {
        "id":853588987,
        "name":" 마키아티 강남점",
        "cate":" 카페",
        "dong":" 강남",
        "lat":37.496836,
        "lon":127.029827,
        "score":4.4,
        "review":131
    },
    {
        "id":1372734736,
        "name":" 카페 그랑주",
        "cate":" 카페",
        "dong":" 홍대",
        "lat":37.554165,
        "lon":126.921434,
        "score":4.44,
        "review":124
    },
    {
        "id":9362425,
        "name":" 위드커피",
        "cate":" 카페",
        "dong":" 홍대",
        "lat":37.556683,
        "lon":126.925334,
        "score":4.48,
        "review":100
    },
    {
        "id":12108448,
        "name":" 스타벅스 사당역점",
        "cate":" 카페",
        "dong":" 사당",
        "lat":37.4786,
        "lon":126.9814,
        "score":1.43,
        "review":162
    },
    {
        "id":8117522,
        "name":" 파리바게뜨 사당역점",
        "cate":" 카페",
        "dong":" 사당",
        "lat":37.478766,
        "lon":126.981329,
        "score":1.38,
        "review":337
    },
    {
        "id":1531032887,
        "name":" 명동아지트",
        "cate":" 카페",
        "dong":" 명동",
        "lat":37.561961,
        "lon":126.985403,
        "score":3.0,
        "review":175
    },
    {
        "id":448756749,
        "name":" 리사르커피명동점",
        "cate":" 카페",
        "dong":" 명동",
        "lat":37.561959,
        "lon":126.988225,
        "score":3.5,
        "review":423
    },
    {
        "id":1264389667,
        "name":" AboutBagel",
        "cate":" 카페",
        "dong":" 명동",
        "lat":37.564774,
        "lon":126.983145,
        "score":2.7,
        "review":148
    },
    {
        "id":802029125,
        "name":" 카페구할구",
        "cate":" 카페",
        "dong":" 명동",
        "lat":37.558633,
        "lon":126.98703,
        "score":1.1,
        "review":500
    },
    {
        "id":22105109,
        "name":" 스타벅스 홍대역점",
        "cate":" 카페",
        "dong":" 홍대",
        "lat":37.557156,
        "lon":126.923582,
        "score":3.8,
        "review":497
    }
]